,City,Cloudiness,Country,Date,Humidity,Lat,Lng,Max Temp,Wind Speed
0,iqaluit,75,CA,1593485950,84,63.75,-68.51,35.6,5.82
1,baripada,24,IN,1593485950,63,21.93,86.72,89.2,1.99
2,mar del plata,20,ES,1593485950,93,43.4,-4.01,62.01,3.65
3,nanortalik,56,GL,1593485951,87,60.14,-45.24,40.23,10.67
4,punta arenas,98,PH,1593485951,66,8.99,125.34,84.58,5.84
5,dharmadam,100,IN,1593485951,82,11.78,75.43,80.42,3.96
6,tuktoyaktuk,20,CA,1593485951,66,69.45,-133.04,55.4,13.87
7,busselton,68,AU,1593485951,62,-33.65,115.33,62.01,22.21
8,inuvik,75,CA,1593485951,33,68.35,-133.72,73.4,6.93
9,simbahan,10,PH,1593485952,75,6.3,120.58,82.27,6.11
10,faanui,92,PF,1593485952,78,-16.48,-151.75,77.58,25.9
11,hilo,75,US,1593485728,58,19.73,-155.09,82.4,11.41
12,dunedin,100,NZ,1593485925,90,-45.87,170.5,46.0,3.0
13,tuatapere,100,NZ,1593485952,85,-46.13,167.68,48.25,12.77
14,hobart,75,AU,1593485835,71,-42.88,147.33,52.0,5.82
15,lavrentiya,29,RU,1593485953,58,65.58,-171.0,46.51,11.23
16,bluff,100,NZ,1593485953,77,-46.6,168.33,49.71,21.07
17,ponta do sol,16,PT,1593485953,100,38.73,-28.27,63.32,10.67
18,kodiak,1,US,1593485737,59,57.79,-152.41,62.6,8.05
19,mweka,43,CD,1593485954,61,-4.85,21.57,69.01,0.6
20,dothan,1,US,1593485954,70,31.22,-85.39,84.2,6.93
21,yellowknife,20,CA,1593485684,35,62.46,-114.35,75.0,8.05
22,gold coast,1,US,1593485954,94,35.79,-81.76,78.01,3.36
23,hermanus,6,ZA,1593485954,95,-34.42,19.23,50.0,1.99
24,mataura,99,NZ,1593485954,90,-46.19,168.86,46.45,8.25
25,nikolskoye,75,RU,1593485954,76,59.7,30.79,62.01,11.18
26,kumluca,1,TR,1593485954,48,36.37,30.29,80.02,2.19
27,lompoc,0,US,1593485955,68,34.64,-120.46,64.99,9.17
28,hithadhoo,63,MV,1593485955,66,-0.6,73.08,84.09,3.6
29,salalah,90,OM,1593485955,89,17.02,54.09,84.2,4.7
30,arraial do cabo,93,BR,1593485955,82,-22.84,-46.65,62.6,6.93
31,horta,29,PT,1593485955,93,38.53,-28.63,66.92,6.22
32,zeya,0,RU,1593485955,25,53.75,127.27,86.76,9.15
33,asau,2,RO,1593485955,83,46.43,26.4,66.0,5.68
34,coos bay,20,US,1593485955,77,43.17,-124.0,64.0,10.29
35,vaini,75,TO,1593485956,94,-21.2,-175.2,77.0,6.93
36,albany,70,US,1593485956,84,42.6,-73.97,68.0,1.01
37,lethem,100,GY,1593485956,89,3.38,-59.8,76.48,0.58
38,clinton,20,US,1593485956,69,42.59,-82.92,77.0,6.93
39,ilulissat,73,GL,1593485956,86,69.22,-51.1,41.0,1.12
40,butaritari,51,KI,1593485956,67,3.07,172.79,83.26,5.03
41,narrabri,90,AU,1593485956,48,-30.32,149.78,64.0,3.36
42,kaitangata,100,NZ,1593485956,75,-46.28,169.85,48.0,18.01
43,anchorage,75,US,1593485956,58,61.22,-149.9,60.01,4.7
44,atuona,7,PF,1593485957,78,-9.8,-139.03,80.01,18.21
45,ushuaia,75,AR,1593485675,64,-54.8,-68.3,33.8,8.05
46,geraldton,75,AU,1593485957,82,-28.77,114.6,64.4,6.93
47,muros,12,ES,1593485957,85,42.78,-9.06,61.0,1.01
48,waitati,100,NZ,1593485957,88,-45.75,170.57,46.0,23.0
49,suntar,3,RU,1593485957,33,62.14,117.63,87.48,3.24
50,waingapu,10,ID,1593485957,60,-9.66,120.26,82.78,14.27
51,puerto ayora,0,ES,1593485957,50,36.59,-6.23,75.2,3.36
52,alakurtti,100,RU,1593485958,90,66.97,30.35,55.0,5.01
53,tasiilaq,100,GL,1593485958,87,65.61,-37.64,44.6,2.24
54,upernavik,31,GL,1593485958,79,72.79,-56.15,38.75,4.72
55,jamestown,1,US,1593485695,64,42.1,-79.24,69.8,6.93
56,nova olinda do norte,1,BR,1593485958,77,-5.53,-46.7,72.54,3.22
57,dublin,1,US,1593485729,31,37.7,-121.94,77.0,12.75
58,rikitea,84,PF,1593485958,54,-23.12,-134.97,69.53,15.08
59,aksu,14,CN,1593485958,21,41.12,80.26,74.59,4.07
60,jalingo,97,NG,1593485958,94,8.88,11.37,71.46,3.29
61,hasaki,75,JP,1593485958,83,35.73,140.83,84.0,11.41
62,new norfolk,100,LR,1593485943,98,6.65,-10.59,72.01,2.19
63,songea,5,TZ,1593485959,91,-10.68,35.65,56.23,4.0
64,caledon,31,ZA,1593485959,95,-34.23,19.43,50.0,1.99
65,syracuse,0,IT,1593485959,77,37.09,15.28,68.0,4.7
66,neiafu,75,TO,1593485959,94,-18.65,-173.98,77.0,8.05
67,monrovia,79,LR,1593485959,89,6.3,-10.8,75.96,8.37
68,kruisfontein,17,ZA,1593485959,85,-34.0,24.73,50.65,8.25
69,aklavik,75,CA,1593485959,33,68.22,-135.01,73.4,6.93
70,daru,78,PG,1593485959,79,-9.08,143.21,78.21,17.11
71,bethel,1,US,1593485675,88,41.37,-73.41,66.2,3.36
72,luderitz,0,NA,1593485960,66,-26.65,15.16,51.8,1.12
73,maumere,28,ID,1593485960,65,-8.62,122.21,82.13,2.21
74,chuy,100,UY,1593485960,92,-33.7,-53.46,54.36,8.77
75,torbay,90,CA,1593485960,100,47.67,-52.73,60.01,13.87
76,estelle,100,US,1593485960,81,29.85,-90.11,84.99,7.45
77,victoria,91,HK,1593485753,70,22.29,114.16,89.01,4.0
78,ribeira grande,17,ES,1593485960,82,42.75,-8.44,61.0,1.12
79,qaanaaq,100,GL,1593485960,64,77.48,-69.36,42.37,4.0
80,san andres,0,ML,1593485961,46,13.3,-4.9,87.96,12.97
81,severo-kurilsk,100,RU,1593485961,82,50.68,156.12,51.91,14.88
82,katsuura,75,JP,1593485961,83,35.13,140.3,84.0,5.82
83,berlevag,100,NO,1593485961,77,70.86,29.09,40.15,17.29
84,oudtshoorn,9,ZA,1593485961,87,-33.59,22.2,48.2,4.7
85,brownwood,75,US,1593485961,58,31.71,-98.99,84.2,18.34
86,sao joao da barra,100,IN,1593485961,73,20.51,76.21,80.06,6.49
87,jalu,0,LY,1593485961,45,29.03,21.55,73.89,5.77
88,salinopolis,6,BR,1593485962,84,-0.61,-47.36,79.23,11.56
89,huarmey,7,PE,1593485962,87,-10.07,-78.15,61.59,11.32
90,tucuma,5,BR,1593485962,91,-0.18,-50.05,76.33,6.55
91,saint-philippe,56,RE,1593485962,64,-21.36,55.77,68.0,6.93
92,lagoa,0,PT,1593485962,96,39.05,-27.98,66.61,12.06
93,bambous virieux,40,MU,1593485962,88,-20.26,57.41,69.8,3.36
94,saint-georges,20,GD,1593485962,88,12.06,-61.75,80.6,13.87
95,eyemouth,43,GB,1593485962,1,55.87,-2.09,55.0,8.01
96,lebu,11,CL,1593485963,90,-37.62,-73.65,49.8,11.7
97,thompson,90,CA,1593485915,93,55.74,-97.86,53.6,8.05
98,namikupa,31,TZ,1593485963,98,-10.83,39.6,64.22,3.89
99,ocos,75,GT,1593485963,100,14.51,-92.19,77.0,4.79
100,kapaa,20,US,1593485963,70,22.08,-159.32,84.2,11.41
101,dukat,89,RU,1593485963,39,62.55,155.55,56.44,17.13
102,barrow,40,US,1593485963,80,71.29,-156.79,39.2,16.11
103,san quintin,0,ML,1593485961,46,13.3,-4.9,87.96,12.97
104,cape town,90,CL,1593485963,100,-36.41,-71.9,48.2,9.17
105,itoman,75,JP,1593485963,79,26.12,127.67,87.8,16.11
106,merauke,96,ID,1593485964,74,-8.47,140.33,81.34,16.62
107,tikhvin,93,RU,1593485964,68,59.65,33.53,56.21,9.82
108,agirish,100,RU,1593485964,73,61.92,63.02,46.42,7.09
109,maragogi,1,BR,1593485789,85,-9.01,-35.22,74.41,5.57
110,flinders,0,AU,1593485964,64,-34.58,150.86,64.99,11.99
111,souillac,40,MU,1593485964,88,-20.52,57.52,69.8,3.36
112,port elizabeth,20,CD,1593485964,55,-7.03,29.76,72.46,2.89
113,carnarvon,75,AU,1593485964,68,-24.87,113.63,68.0,10.29
114,bereda,16,ES,1593485964,98,43.27,-7.54,55.0,1.01
115,avarua,3,CK,1593485964,65,-21.21,-159.78,77.0,18.34
116,adrar,0,MR,1593485964,15,20.5,-10.07,91.24,7.36
117,cabo san lucas,20,BR,1593485965,69,-8.28,-35.03,78.8,8.05
118,bilma,0,NE,1593485965,14,18.69,12.92,82.2,9.17
119,sao joao dos patos,100,IN,1593485965,73,20.51,76.21,80.06,6.49
120,kahului,20,US,1593485838,43,20.89,-156.47,89.6,18.34
121,chaykovskaya,75,RU,1593485965,87,58.13,55.54,48.2,2.24
122,malabo,40,GQ,1593485965,94,3.75,8.78,77.0,5.82
123,ancud,75,CL,1593485965,93,-41.87,-73.82,45.0,3.36
124,abu kamal,13,IN,1593485965,82,24.6,72.7,77.92,7.0
125,tabas,0,IR,1593485965,12,33.6,56.92,86.0,11.41
126,kavaratti,100,IN,1593485965,80,10.57,72.64,83.35,17.76
127,fort nelson,100,NL,1593485966,86,52.65,6.39,57.99,10.0
128,porto de moz,0,PT,1593485750,93,41.15,-8.61,66.99,4.7
129,teknaf,88,BD,1593485966,76,20.86,92.31,85.57,7.81
130,half moon bay,89,LR,1593485966,92,6.38,-10.7,74.5,5.55
131,dingle,92,PH,1593485966,74,11.0,122.67,82.27,4.5
132,rio grande city,0,GR,1593485966,82,38.3,21.78,68.0,2.48
133,grand river south east,75,US,1593485691,18,38.88,-109.5,70.0,19.46
134,zhigansk,25,RU,1593485966,39,66.77,123.37,80.01,9.22
135,myanaung,16,MM,1593485966,63,18.28,95.32,88.3,5.17
136,high level,23,US,1593485966,74,33.61,-95.75,82.99,12.73
137,alofi,40,NU,1593485967,88,-19.06,-169.92,78.8,11.41
138,itarema,67,BR,1593485967,89,-2.92,-39.92,74.98,7.96
139,pevek,92,RU,1593485967,95,69.7,170.31,33.21,8.84
140,tiksi,40,RU,1593485967,55,71.69,128.87,51.44,8.34
141,norman wells,1,US,1593485967,62,35.22,-97.44,86.0,17.22
142,nanning,40,CN,1593485967,66,22.82,108.32,89.6,4.47
143,dikson,45,RU,1593485967,75,73.51,80.55,49.44,18.97
144,havre-saint-pierre,1,CA,1593485968,87,50.23,-63.6,59.0,6.93
145,sao filipe,100,IN,1593485965,73,20.51,76.21,80.06,6.49
146,praia,75,CV,1593485968,73,14.92,-23.51,75.2,13.87
147,port alfred,20,CD,1593485968,55,-7.03,29.76,72.46,2.89
148,husavik,75,IS,1593485825,75,66.04,-17.34,46.4,6.49
149,matara,38,LK,1593485968,82,5.95,80.54,82.47,10.69
150,grants,1,US,1593485742,15,35.15,-107.85,75.2,13.87
151,east london,90,IS,1593485968,93,65.0,-15.0,42.8,11.41
152,isangel,75,VU,1593485968,65,-19.55,169.27,77.0,11.41
153,kaeo,10,NZ,1593485968,3,-35.1,173.78,60.01,13.0
154,puerto cabezas,0,ES,1593485968,50,36.59,-6.23,75.2,3.36
155,honavar,100,IN,1593485968,83,14.28,74.45,80.37,4.45
156,yako,46,BF,1593485969,50,12.97,-2.27,84.92,13.76
157,poitiers,75,FR,1593485866,93,46.58,0.33,55.0,8.05
158,grand baie,75,US,1593485691,18,38.88,-109.5,70.0,19.46
159,bac lieu,1,RS,1593485969,93,45.39,19.24,62.01,4.7
160,guerrero negro,99,MX,1593485969,78,17.67,-100.0,70.56,5.21
161,mahebourg,40,MU,1593485969,88,-20.41,57.7,69.8,3.36
162,castro,10,BR,1593485969,97,-24.79,-50.01,54.03,7.16
163,kasongo-lunda,73,CD,1593485969,52,-6.47,16.82,71.06,0.58
164,yar-sale,99,RU,1593485969,83,66.83,70.83,49.8,8.84
165,ust-maya,48,RU,1593485970,32,60.42,134.53,83.28,12.5
166,yalutorovsk,3,RU,1593485970,86,56.65,66.3,53.4,4.85
167,padang,75,ID,1593485970,65,-0.95,100.35,85.66,2.26
168,belaya gora,99,UA,1593485970,83,49.03,25.77,66.99,7.0
169,nata,99,PA,1593485970,88,8.33,-80.52,73.99,3.44
170,hue,20,VN,1593485838,52,16.47,107.6,93.2,3.36
171,abu zabad,13,IN,1593485970,82,24.6,72.7,77.92,7.0
172,cockburn town,0,AU,1593485970,31,-32.08,141.0,60.8,13.87
173,north bend,39,FR,1593485970,81,50.33,3.67,53.6,8.05
174,toktogul,100,KG,1593485971,39,41.87,72.94,67.64,1.03
175,sitka,75,US,1593485971,76,57.05,-135.33,57.2,11.41
176,okhotsk,100,RU,1593485971,88,59.38,143.3,57.33,11.81
177,deputatskiy,92,RU,1593485971,34,69.3,139.9,59.11,4.74
178,kupino,31,RU,1593485971,65,54.37,77.3,60.66,5.86
179,port hedland,20,CD,1593485968,55,-7.03,29.76,72.46,2.89
180,anju,100,KP,1593485971,85,39.62,125.66,68.7,6.08
181,saskylakh,23,RU,1593485971,23,71.92,114.08,91.54,11.97
182,hamilton,1,US,1593485901,94,39.18,-84.53,80.6,0.18
183,yulara,0,AU,1593485972,18,-25.24,130.99,69.8,4.7
184,diapaga,68,BF,1593485972,67,12.07,1.79,80.04,6.04
185,gawler,47,AU,1593485972,50,-34.6,138.73,59.0,11.01
186,mys shmidta,100,RU,1593485972,74,62.06,48.62,46.13,4.32
187,vila do maio,32,PT,1593485972,82,42.03,-8.16,68.0,3.36
188,kismayo,61,SO,1593485972,85,-0.36,42.55,77.31,15.05
189,dundalk,5,US,1593485750,61,39.25,-76.52,80.01,5.86
190,avera,1,US,1593485972,83,33.19,-82.53,80.6,3.36
191,palmdale,1,US,1593485972,36,34.58,-118.12,78.8,16.11
192,takoradi,66,GH,1593485973,87,4.88,-1.76,75.58,9.37
193,aripuana,37,BR,1593485973,71,-9.17,-60.63,73.38,1.59
194,naze,75,JP,1593485973,94,28.37,129.48,84.2,20.8
195,pelym,98,RU,1593485973,65,61.01,62.0,50.16,7.54
196,tual,20,ID,1593485973,82,-5.67,132.75,79.79,22.19
197,innisfail,41,AU,1593485973,93,-17.53,146.03,63.0,5.99
198,lorengau,77,PG,1593485973,68,-2.02,147.27,86.18,7.81
199,ondangwa,0,NA,1593485974,43,-17.92,15.95,51.8,4.7
200,nemuro,75,JP,1593485974,93,43.32,145.57,59.0,6.93
201,vardo,75,NO,1593485974,93,70.37,31.11,39.2,23.04
202,evensk,97,RU,1593485974,37,61.95,159.23,64.13,14.52
203,san patricio,0,ML,1593485819,46,13.3,-4.9,87.96,12.97
204,ronne,49,DK,1593485974,93,55.1,14.71,59.0,16.11
205,olafsvik,71,IS,1593485974,81,64.89,-23.71,50.18,13.18
206,bredasdorp,3,ZA,1593485974,93,-34.53,20.04,42.8,2.24
207,omboue,83,GA,1593485975,82,-1.57,9.26,71.13,5.46
208,teruel,0,ES,1593485975,87,40.67,-0.67,68.0,4.7
209,jiwani,61,PK,1593485975,72,25.05,61.74,86.2,5.93
210,klaksvik,100,FO,1593485975,87,62.23,-6.59,51.8,10.29
211,aswan,0,EG,1593485975,21,24.09,32.91,80.96,7.18
212,itaituba,93,BR,1593485975,77,-4.28,-55.98,78.17,2.62
213,cidreira,100,BR,1593485975,92,-30.18,-50.21,60.58,18.01
214,shimoda,75,JP,1593485975,83,34.67,138.95,80.6,17.22
215,caraballeda,49,VE,1593485975,77,10.61,-66.85,76.87,7.09
216,castelnaudary,90,FR,1593485976,72,43.32,1.95,66.2,10.29
217,pokaran,0,IN,1593485976,52,26.92,71.92,91.65,12.93
218,vila velha,32,PT,1593485972,82,42.03,-8.16,68.0,3.36
219,grand-santi,100,GF,1593485976,96,4.25,-54.38,74.37,2.68
220,iquique,40,CL,1593485976,72,-20.22,-70.14,59.0,1.12
221,muravlenko,84,RU,1593485976,82,63.79,74.52,55.67,8.03
222,coquimbo,38,CL,1593485976,76,-29.95,-71.34,55.4,6.93
223,chokurdakh,100,RU,1593485976,40,70.63,147.92,55.99,9.22
224,pangody,99,RU,1593485976,80,65.85,74.49,57.22,6.42
225,celestun,98,MX,1593485976,70,20.87,-90.4,84.52,12.82
226,tessalit,0,ML,1593485977,12,20.2,1.01,88.11,11.5
227,sioux lookout,20,US,1593485977,88,42.73,-96.23,82.4,8.05
228,byron bay,1,US,1593485695,88,44.03,-92.65,78.8,9.17
229,lyuban,100,BY,1593485977,91,52.8,28.0,64.24,10.47
230,bartica,75,GY,1593485977,100,6.4,-58.62,75.2,6.93
231,saint-pierre,66,RE,1593485803,64,-21.34,55.48,68.0,6.93
232,mangrol,96,IN,1593485977,71,21.12,70.12,84.69,3.36
233,bainbridge,75,US,1593485977,63,47.63,-122.52,66.0,9.17
234,kohat,20,PK,1593485977,62,33.58,71.45,84.2,4.7
235,pisco,2,PE,1593485978,87,-13.7,-76.22,60.01,5.82
236,axim,52,GH,1593485978,88,4.87,-2.24,75.2,8.52
237,hovd,100,MN,1593485978,44,48.01,91.64,69.71,4.68
238,victor harbor,0,US,1593485978,82,42.98,-77.41,68.0,1.41
239,vangaindrano,2,MG,1593485978,91,-23.35,47.6,63.64,3.38
240,biak,89,ID,1593485978,70,-0.91,122.88,81.99,6.6
241,altamira,83,BR,1593485978,97,-3.2,-52.21,72.63,3.0
242,lerwick,98,GB,1593485978,93,60.15,-1.15,55.4,11.41
243,krasnogorodsk,97,RU,1593485978,93,56.83,28.28,64.27,12.57
244,virginia beach,40,US,1593485710,69,37.55,-77.45,75.2,3.36
245,tamandare,0,BR,1593485979,82,-8.76,-35.1,75.11,6.06
246,collie,36,AU,1593485979,62,-33.37,116.15,62.01,17.02
247,longyearbyen,75,SJ,1593485979,65,78.22,15.64,41.0,9.17
248,benghazi,0,LY,1593485979,78,32.12,20.07,73.85,8.97
249,nouadhibou,0,MR,1593485979,88,20.93,-17.03,68.0,18.34
250,agadir,20,MA,1593485979,93,30.42,-9.6,66.2,4.7
251,mahanje,37,TZ,1593485979,88,-9.93,35.33,59.09,1.77
252,ratnagiri,100,IN,1593485979,78,16.98,73.3,82.35,4.99
253,lianzhou,99,CN,1593485979,63,24.78,112.38,89.94,4.25
254,port pirie,20,CD,1593485979,55,-7.03,29.76,72.46,2.89
255,kula,0,TR,1593485980,64,38.55,28.65,65.01,2.04
256,tiquisate,100,GT,1593485980,92,14.28,-91.37,76.55,1.9
257,balabac,99,PH,1593485980,70,7.99,117.06,85.26,9.71
258,ilebo,20,CD,1593485980,69,-4.32,20.58,70.93,1.48
259,kargasok,100,RU,1593485980,84,59.06,80.86,55.0,15.17
260,goderich,0,CA,1593485732,83,43.75,-81.72,66.0,6.04
261,iwanai,97,JP,1593485980,70,42.97,140.51,72.03,2.08
262,labuhan,22,ID,1593485981,65,-6.88,112.21,83.53,5.48
263,saint-leu,37,RE,1593485981,64,-21.15,55.28,68.0,6.93
264,conroe,83,US,1593485687,76,30.31,-95.46,84.0,9.48
265,gongzhuling,100,CN,1593485981,53,43.5,124.82,82.0,13.62
266,katete,93,UG,1593485981,68,-0.78,29.75,60.85,3.02
267,boo,100,SE,1593485981,87,59.33,18.28,61.0,8.05
268,karratha,39,AU,1593485772,23,-20.74,116.85,83.1,13.85
269,georgetown,20,MY,1593485836,79,5.41,100.34,87.8,3.36
270,deer lake,100,US,1593485981,83,38.62,-91.8,75.99,1.99
271,clyde river,64,US,1593485982,64,41.3,-82.98,71.01,1.01
272,vila franca do campo,32,PT,1593485982,82,42.03,-8.16,68.0,3.36
273,garowe,52,SO,1593485982,60,8.41,48.48,78.94,21.59
274,westport,30,US,1593485932,98,41.14,-73.36,68.0,5.59
275,balkanabat,0,TM,1593485982,42,39.51,54.37,74.64,6.85
276,moyale,38,KE,1593485982,96,3.52,39.06,64.11,7.34
277,qaqortoq,83,GL,1593485982,70,60.72,-46.03,46.4,10.29
278,bintulu,20,MY,1593485983,88,3.17,113.03,82.4,4.7
279,palmer,75,US,1593485983,93,42.16,-72.33,66.2,4.7
280,caravelas,82,BR,1593485983,81,-17.71,-39.25,73.4,11.3
281,key west,1,US,1593485983,16,32.73,-101.8,91.4,12.75
282,provideniya,75,RU,1593485983,70,64.38,-173.3,48.2,13.42
283,atambua,86,ID,1593485983,57,-9.11,124.89,81.7,1.41
284,rasulnagar,32,PK,1593485983,74,32.33,73.78,84.2,4.7
285,smithers,40,CA,1593485983,67,54.78,-127.17,59.0,8.05
286,codrington,95,AU,1593485984,61,-38.27,141.97,54.19,16.8
287,moron,90,AR,1593485984,93,-34.65,-58.62,52.0,13.87
288,sandwick,99,GB,1593485984,93,60.0,-1.25,53.6,11.41
289,illapel,0,CL,1593485984,62,-31.63,-71.17,47.71,3.24
290,vanimo,100,PG,1593485984,60,-2.67,141.3,86.23,4.81
291,dabat,0,ET,1593485984,82,12.98,37.77,56.43,2.84
292,mackay,40,AU,1593485984,77,-21.15,149.2,69.8,14.99
293,betioky,46,MG,1593485985,93,-23.72,44.38,61.2,2.64
294,ojinaga,1,MX,1593485985,16,29.57,-104.42,96.8,4.7
295,port lincoln,20,CD,1593485979,55,-7.03,29.76,72.46,2.89
296,micheweni,13,TZ,1593485985,86,-4.97,39.83,75.6,7.99
297,namatanai,66,PG,1593485985,68,-3.67,152.43,84.94,5.1
298,cherskiy,44,RU,1593485985,42,68.75,161.3,53.71,16.37
299,margate,58,GB,1593485985,80,51.38,1.39,59.0,1.99
300,haines junction,1,US,1593485771,59,59.23,-135.44,62.6,10.29
301,fairlie,84,GB,1593485985,93,55.76,-4.86,53.01,8.99
302,harper,100,LR,1593485986,81,4.38,-7.72,75.7,7.07
303,urmary,20,RU,1593485986,81,55.68,47.94,50.0,4.47
304,khatanga,65,RU,1593485986,33,71.97,102.5,85.69,6.8
305,sangmelima,95,CM,1593485986,99,2.93,11.98,66.24,2.98
306,helena,90,US,1593485986,87,46.59,-112.04,51.8,4.7
307,terrace bay,75,CA,1593485788,58,54.52,-128.6,59.0,11.41
308,nago,90,JP,1593485986,74,26.59,127.98,87.8,21.92
309,hami,38,CN,1593485986,35,42.8,93.45,74.14,6.76
310,ust-karsk,45,RU,1593485987,29,52.7,118.81,82.62,8.16
311,anadyr,40,RU,1593485987,75,64.75,177.48,46.4,11.18
312,grand gaube,75,US,1593485747,18,38.88,-109.5,70.0,19.46
313,knysna,24,ZA,1593485987,87,-34.04,23.05,48.2,4.7
314,along,70,IN,1593485987,76,28.17,94.77,81.81,1.14
315,asfi,4,MA,1593485987,93,32.3,-9.24,68.22,9.42
316,havoysund,75,NO,1593485987,75,71.0,24.66,41.0,31.09
317,angoche,4,MZ,1593485987,84,-16.23,39.91,72.86,9.33
318,akureyri,75,IS,1593485988,75,65.68,-18.09,46.4,3.71
319,valparaiso,20,CL,1593485988,93,-33.04,-71.63,50.0,3.36
320,ongandjera,0,NA,1593485988,36,-17.88,15.07,53.8,9.13
321,brandfort,0,ZA,1593485988,74,-28.7,26.46,33.8,9.17
322,tomatlan,100,MX,1593485988,81,19.93,-105.25,77.67,1.83
323,tynda,54,RU,1593485989,30,55.17,124.72,84.07,2.93
324,katherine,0,AU,1593485989,25,-14.47,132.27,84.2,11.41
325,tateyama,75,JP,1593485989,83,34.98,139.87,80.6,5.82
326,kupang,20,ID,1593485907,52,-10.17,123.58,87.8,17.22
327,torres,100,BR,1593485989,96,-29.34,-49.73,57.85,9.51
328,hofn,72,IS,1593485989,72,64.25,-15.21,48.27,14.45
329,tingo maria,21,EC,1593485753,74,-0.9,-79.05,60.12,4.07
330,churapcha,100,RU,1593485990,24,62.0,132.43,82.15,15.17
331,wenling,89,CN,1593485990,52,28.37,121.36,82.0,6.13
332,chicama,46,PE,1593485990,82,-7.84,-79.15,63.66,6.8
333,petaluma,1,US,1593485939,43,38.23,-122.64,77.0,4.7
334,mount gambier,100,GB,1593485837,99,53.66,-1.85,53.01,4.0
335,petropavlovka,1,RU,1593485990,38,50.61,105.32,79.43,4.41
336,young,100,UY,1593485990,95,-32.68,-57.63,53.2,8.95
337,ipira,6,BR,1593485990,97,-12.16,-39.74,65.1,4.27
338,sale,75,MA,1593485737,83,34.04,-6.82,71.6,10.29
339,maraba,35,BR,1593485894,65,-5.37,-49.12,80.6,4.7
340,shingu,75,JP,1593485991,94,33.73,135.98,77.0,19.46
341,skjervoy,100,NO,1593485991,78,70.03,20.97,46.44,15.19
342,grindavik,90,IS,1593485991,93,63.84,-22.43,51.8,4.7
343,kem,100,RU,1593485991,65,64.96,34.58,54.7,13.53
344,okha,91,RU,1593485991,81,53.57,142.95,52.81,6.13
345,brae,100,GB,1593485991,87,60.4,-1.35,55.4,11.41
346,nioro,47,GM,1593485991,74,13.35,-15.75,78.35,9.17
347,orocue,93,CO,1593485992,90,4.79,-71.34,73.56,3.8
348,tiznit,1,MA,1593485992,63,29.58,-9.5,69.31,0.58
349,pangnirtung,87,CA,1593485992,65,66.15,-65.71,45.93,3.2
350,ogaminana,100,NG,1593485992,94,7.59,6.22,71.31,5.97
351,maraa,85,BR,1593485992,97,-1.83,-65.37,73.24,1.48
352,kitale,1,KE,1593485992,92,1.02,35.01,51.58,0.49
353,richards bay,90,US,1593485992,83,46.84,-95.91,71.6,13.87
354,narsaq,61,GL,1593485993,70,60.92,-46.05,46.4,10.29
355,araouane,0,ML,1593485993,14,18.9,-3.53,93.18,10.2
356,moshny,0,UA,1593485993,91,49.51,31.75,64.83,0.51
357,severomuysk,100,RU,1593485993,53,56.15,113.43,65.08,0.47
358,superior,90,US,1593485963,100,46.72,-92.1,64.4,3.36
359,pangai,75,TO,1593485993,83,-19.8,-174.35,78.8,2.24
360,kaduna,100,NG,1593485993,92,10.52,7.44,70.43,2.66
361,vila,32,PT,1593485993,82,42.03,-8.16,68.0,3.36
362,sulgen,0,CH,1593485993,100,47.54,9.19,55.99,2.24
363,sabang,67,ID,1593485993,72,5.89,95.32,82.08,7.14
364,mount isa,100,GB,1593485994,99,53.66,-1.85,53.01,4.0
365,broome,75,US,1593485994,77,42.25,-75.83,66.2,6.93
366,inhambane,0,MZ,1593485994,70,-23.86,35.38,65.19,7.54
367,baykit,81,RU,1593485994,62,61.67,96.37,66.69,3.4
368,platonovka,1,RU,1593485994,85,52.71,41.95,53.49,7.94
369,vaitape,94,PF,1593485994,76,-16.52,-151.75,78.4,25.86
370,altay,100,CN,1593485994,80,47.87,88.12,53.53,3.29
371,bria,100,CF,1593485994,95,6.54,21.99,68.67,2.46
372,saldanha,0,ZA,1593485995,93,-33.01,17.94,50.0,4.7
373,hays,100,US,1593485995,84,30.05,-98.03,82.0,3.0
374,dudinka,100,RU,1593485995,55,69.41,86.18,64.4,17.9
375,fortuna,20,US,1593485995,76,40.6,-124.16,61.0,11.41
376,buraydah,0,SA,1593485896,30,26.33,43.98,82.4,8.05
377,kuopio,100,FI,1593485943,72,62.89,27.68,59.0,9.17
378,rio gallegos,0,GR,1593485966,82,38.3,21.78,68.0,2.48
379,sassandra,100,CI,1593485995,89,4.95,-6.08,75.04,7.14
380,dekar,0,BW,1593485995,53,-21.53,21.93,44.89,7.72
381,vallenar,45,CL,1593485995,69,-28.57,-70.76,55.06,2.53
382,grand forks,75,US,1593485996,18,38.88,-109.5,70.0,19.46
383,san policarpo,0,ML,1593485961,46,13.3,-4.9,87.96,12.97
384,hassleholm,95,SE,1593485996,77,56.16,13.77,60.01,6.93
385,port victoria,20,CD,1593485964,55,-7.03,29.76,72.46,2.89
386,kortkeros,75,RU,1593485996,81,61.81,51.58,46.4,4.47
387,chernyshevskiy,21,RU,1593485996,32,63.01,112.47,84.92,2.55
388,acajutla,100,SV,1593485996,100,13.59,-89.83,66.99,1.99
389,luena,0,AO,1593485996,46,-11.78,19.92,52.02,4.9
390,lizzano,0,IT,1593485996,67,40.39,17.45,78.01,1.99
391,bonfim,100,BR,1593485996,87,3.08,-59.95,75.54,3.69
392,milosesti,2,RO,1593485997,69,44.73,27.23,73.0,7.9
393,peyima,98,SL,1593485997,99,8.7,-11.03,70.54,1.05
394,baikunthpur,69,IN,1593485997,65,23.25,82.55,83.61,7.27
395,drakhtik,0,AM,1593485997,70,40.56,45.24,52.05,1.92
396,cap malheureux,90,FR,1593485997,100,49.27,-1.21,59.0,11.41
397,ostersund,9,SE,1593485997,93,63.18,14.64,51.8,3.36
398,saraland,100,US,1593485997,82,30.82,-88.07,82.99,7.0
399,litoral del san juan,100,BR,1593485997,92,-30.01,-50.16,59.88,16.06
400,mao,0,ES,1593485997,75,39.89,4.27,74.88,6.55
401,taoudenni,0,ML,1593485745,10,22.68,-3.98,94.62,7.74
402,airai,34,TL,1593485998,68,-8.93,125.41,71.29,4.03
403,andapa,0,MG,1593485998,83,-14.65,49.65,56.98,2.93
404,ust-omchug,90,RU,1593485998,60,61.15,149.63,53.73,20.51
405,kabare,100,CD,1593485998,73,-2.47,28.82,58.95,1.74
406,ganzhou,99,CN,1593485998,88,28.82,115.43,80.35,3.47
407,korla,0,CN,1593485998,76,41.76,86.15,75.99,4.25
408,virovitica,8,HR,1593485998,95,45.83,17.38,57.99,0.94
409,plettenberg bay,26,DE,1593485999,77,51.22,7.88,55.0,1.99
410,kosh-agach,100,RU,1593485999,66,50.0,88.67,53.78,4.65
411,malpe,75,IN,1593485999,94,13.35,74.72,75.2,5.82
412,juneau,75,US,1593485700,71,58.3,-134.42,57.2,4.7
413,aldergrove,75,CA,1593485968,60,49.06,-122.47,71.01,16.11
414,mbala,92,ZM,1593485999,80,-8.84,31.37,57.07,10.51
415,gizo,21,SB,1593485999,70,-8.1,156.84,83.14,1.66
416,maniitsoq,0,GL,1593485999,84,65.42,-52.9,43.45,7.65
417,port hawkesbury,20,CD,1593485964,55,-7.03,29.76,72.46,2.89
418,denizli,0,TR,1593485849,52,37.84,29.07,64.4,8.05
419,mulege,4,MX,1593486000,56,26.88,-111.98,84.87,3.31
420,tamsalu,100,EE,1593486000,100,59.16,26.12,59.94,4.05
421,nohar,0,IN,1593486000,28,29.18,74.77,101.75,4.36
422,pasighat,76,IN,1593486000,80,28.07,95.33,82.78,3.31
423,pecos,1,US,1593486000,16,31.42,-103.49,93.2,5.82
424,lasa,90,IT,1593486000,100,46.62,10.7,51.8,9.17
425,shirokiy,0,RU,1593486000,63,49.76,129.52,76.62,4.21
426,tambopata,38,PE,1593486001,87,-12.73,-69.18,69.55,0.51
427,keti bandar,0,AM,1593486001,71,40.87,43.84,53.6,3.87
428,krotovka,0,RU,1593486001,82,53.29,51.17,52.21,8.23
429,catuday,0,PH,1593486001,72,16.29,119.81,84.87,15.57
430,ust-nera,86,RU,1593486002,33,64.57,143.2,64.62,8.21
431,flin flon,56,FR,1593486002,67,48.5,6.66,59.0,3.36
432,namibe,0,AO,1593486002,59,-15.2,12.15,68.86,4.36
433,carlsbad,1,US,1593486003,63,33.16,-117.35,66.2,8.05
434,bubaque,57,GW,1593486003,83,11.28,-15.83,80.78,12.62
435,bathsheba,20,BB,1593486003,78,13.22,-59.52,82.4,13.87
436,kiunga,99,PG,1593486004,90,-6.12,141.29,77.88,3.58
437,barvinkove,0,UA,1593486004,88,48.91,37.02,64.56,7.74
438,yuli,96,NG,1593486005,91,9.7,10.27,71.69,4.61
439,bernalillo,1,US,1593486005,13,35.05,-106.67,86.0,16.11
440,ilo,6,PE,1593486005,80,-17.64,-71.34,60.94,8.68
441,springfield,1,US,1593485817,78,37.22,-93.3,79.0,12.75
442,komsomolskiy,99,UZ,1593486006,22,40.43,71.72,78.8,4.29
443,ambilobe,0,MG,1593486006,83,-13.2,49.05,64.92,2.98
444,formoso do araguaia,0,BR,1593486006,59,-14.95,-46.23,60.1,3.91
445,zhezkazgan,25,KZ,1593486006,25,47.8,67.71,77.0,6.71
446,mayumba,4,GA,1593486006,86,-3.43,10.66,70.11,2.35
447,irati,40,BR,1593486001,98,-25.47,-50.65,53.58,2.62
448,chabahar,17,IR,1593486007,75,25.29,60.64,86.67,10.85
449,saint-augustin,0,CA,1593486007,91,51.23,-58.65,52.65,6.17
450,sorland,23,NO,1593486007,82,67.67,12.69,47.07,36.1
451,kavieng,12,PG,1593486007,65,-2.57,150.8,85.23,2.93
452,petropavlovsk-kamchatskiy,100,RU,1593486007,49,53.05,158.65,68.0,11.18
453,zhangye,87,CN,1593486007,27,38.93,100.45,78.76,12.55
454,mangan,63,IN,1593486008,51,27.52,88.53,82.89,3.36
455,athabasca,15,CA,1593486008,81,54.72,-113.29,61.79,4.61
456,bengkulu,0,ID,1593486008,60,-3.8,102.27,84.85,2.37
457,marzuq,99,YE,1593486008,42,14.4,46.47,81.07,4.0
458,hobyo,60,SO,1593486008,80,5.35,48.53,78.19,18.92
459,lovozero,100,RU,1593486008,62,68.0,35.01,54.43,11.25
460,roald,52,NO,1593486008,87,62.58,6.13,53.6,9.17
461,skibbereen,75,IE,1593486009,93,51.55,-9.27,51.8,8.05
462,bairiki,20,KI,1593486009,66,1.33,172.98,87.8,3.36
463,eyl,99,SO,1593486009,66,7.98,49.82,81.27,25.19
464,khoy,78,IR,1593486009,42,38.55,44.95,69.66,2.04
465,bahia blanca,3,BR,1593486009,94,-12.0,-42.0,58.37,3.98
466,vao,41,NC,1593486010,65,-22.67,167.48,68.16,18.39
467,gushi,1,CN,1593486010,26,34.64,109.58,92.53,4.09
468,dali,78,CN,1593486010,63,25.7,100.18,75.06,4.74
469,bucksport,99,US,1593486010,95,44.57,-68.8,66.0,1.99
470,udachnyy,0,RU,1593486010,24,66.42,112.4,82.4,2.24
471,esperance,5,AU,1593486010,76,-33.87,121.9,57.2,23.04
472,pudozh,92,RU,1593486010,63,61.81,36.53,50.81,7.43
473,craig,20,US,1593486010,58,40.52,-107.55,62.6,12.75
474,ruidoso,1,US,1593485937,29,33.33,-105.67,73.4,18.34
475,dhidhdhoo,100,MV,1593486011,80,6.88,73.1,82.51,12.3
476,pemangkat,86,ID,1593486011,79,1.17,108.97,81.03,4.36
477,verkh-usugli,100,RU,1593486011,74,52.7,115.17,65.37,1.5
478,fengcheng,100,CN,1593486011,94,40.45,124.07,66.42,5.57
479,tazovskiy,100,RU,1593486011,82,67.47,78.7,54.5,13.11
480,abeche,94,TD,1593486011,56,13.83,20.83,82.11,2.98
481,warmbad,0,NA,1593486012,53,-28.45,18.73,47.48,11.18
482,lucea,40,JM,1593486012,79,18.45,-78.17,84.2,4.7
483,jacareacanga,14,BR,1593486012,72,-6.22,-57.75,74.8,1.12
484,tura,1,IN,1593486012,82,25.52,90.22,81.99,5.21
485,lockhart,1,US,1593486012,48,28.62,-81.44,87.8,6.93
486,haverfordwest,99,GB,1593486012,82,51.8,-4.97,57.2,19.46
487,stornoway,72,GB,1593486012,100,58.21,-6.39,54.0,6.93
488,kikwit,100,CD,1593486012,61,-5.04,18.82,77.18,1.72
489,rancho cordova,0,BR,1593486012,89,-23.02,-52.96,65.07,11.36
490,nome,75,US,1593486012,70,64.5,-165.41,46.0,17.22
491,beringovskiy,99,RU,1593486013,87,63.05,179.32,45.28,8.05
492,cartagena,100,CO,1593486006,84,10.4,-75.51,80.38,11.39
493,tevaitoa,100,PF,1593486013,75,-16.78,-151.5,78.03,24.94
494,medyn,47,RU,1593486013,93,54.97,35.86,51.8,5.66
495,simi,71,SL,1593486013,97,9.57,-12.35,73.22,3.09
496,likasi,74,CD,1593486013,62,-10.98,26.73,53.85,3.78
497,dubi,6,CZ,1593486013,95,50.69,13.79,61.0,7.34
498,sungaipenuh,75,ID,1593486013,66,-2.08,101.38,77.63,2.26
499,praia da vitoria,75,CV,1593486013,73,14.92,-23.51,75.2,13.87
500,boditi,63,ET,1593486013,98,6.97,37.87,55.45,3.15
501,brandon,1,US,1593485976,83,27.94,-82.29,86.0,3.36
502,diamantino,74,BR,1593486014,61,-14.41,-56.45,72.91,4.29
503,antalaha,5,MG,1593486014,85,-14.9,50.28,66.63,6.78
504,necochea,100,AR,1593486014,82,-38.55,-58.74,48.99,4.0
505,qinggang,0,CN,1593486014,56,46.68,126.08,77.38,9.51
506,denpasar,40,ID,1593486014,83,-8.65,115.22,82.4,16.11
507,kamenka,0,RU,1593486014,96,51.32,42.77,57.0,5.77
508,kantunilkin,5,MX,1593486015,79,21.09,-87.45,84.2,5.82
509,iskateley,100,RU,1593486015,75,67.68,53.15,42.1,9.1
510,villaviciosa,52,ES,1593486015,84,43.48,-5.44,59.0,1.1
511,whitianga,19,NZ,1593486015,73,-36.83,175.7,57.0,4.0
512,tabou,100,CI,1593486015,82,4.42,-7.35,75.67,7.7
513,daraitan,40,PH,1593486015,59,14.6,121.43,91.4,5.82
514,bacolod,100,PH,1593486015,80,10.67,122.95,78.96,1.57
515,constitucion,66,CL,1593485919,88,-35.33,-72.42,51.01,5.53
516,meadow lake,66,US,1593486016,77,45.53,-102.22,82.0,14.41
517,dalby,40,AU,1593486016,48,-27.18,151.27,64.4,6.93
518,pishin,1,PK,1593486016,38,30.58,67.0,83.25,4.18
519,himatnagar,20,IN,1593486016,74,23.6,72.95,87.8,5.39
520,kitimat,75,CA,1593486016,58,54.05,-128.65,59.0,11.41
521,alugan,41,PH,1593486016,69,12.22,125.48,83.41,5.39
522,hailar,100,CN,1593486016,42,49.2,119.7,76.5,11.21
523,castro marim,10,BR,1593486016,97,-24.79,-50.01,54.03,7.16
524,ahipara,42,NZ,1593486017,79,-35.17,173.17,56.37,11.3
525,moree,0,AU,1593486017,45,-29.47,149.85,64.4,10.29
526,ati,94,TD,1593486017,57,13.22,18.34,80.73,9.91
527,bansang,98,GM,1593486017,70,13.43,-14.65,80.8,8.05
528,russell,1,US,1593486014,94,32.35,-85.2,86.0,3.8
529,santa elena,29,PH,1593486017,63,17.49,120.43,87.71,9.01
530,xichang,100,CN,1593486017,82,27.9,102.26,68.11,5.7
531,panzhihua,100,CN,1593486017,77,26.59,101.71,72.0,2.55
532,nadym,100,RU,1593486017,89,65.53,72.52,48.34,3.67
