,City,Cloudiness,Country,Date,Humidity,Lat,Lng,Max Temp,Wind Speed
0,ponta do sol,73,PT,1593558501,100,38.73,-28.27,63.95,9.42
1,haines junction,90,US,1593558501,63,59.23,-135.44,60.8,6.93
2,sao desiderio,84,IN,1593558501,76,20.51,76.21,75.92,6.58
3,rikitea,37,PF,1593558256,60,-23.12,-134.97,68.97,17.81
4,zhezkazgan,73,KZ,1593558501,61,47.8,67.71,69.4,16.06
5,vaini,75,TO,1593558501,78,-21.2,-175.2,75.2,9.17
6,kroya,78,ID,1593558501,87,-7.63,109.25,75.99,6.62
7,bluff,100,NZ,1593558269,83,-46.6,168.33,39.0,3.0
8,sao jose da coroa grande,84,IN,1593558501,76,20.51,76.21,75.92,6.58
9,jumla,72,NP,1593558502,70,29.27,82.18,61.34,0.51
10,bethel,1,US,1593558295,69,41.37,-73.41,75.2,4.7
11,naze,75,JP,1593558502,100,28.37,129.48,80.6,3.36
12,georgetown,20,MY,1593558264,94,5.41,100.34,78.8,2.24
13,ahuimanu,75,US,1593558502,62,21.44,-157.84,87.8,13.87
14,vila velha,1,PT,1593558502,88,42.03,-8.16,66.0,6.93
15,kapaa,20,US,1593558502,66,22.08,-159.32,84.2,11.41
16,new norfolk,75,LR,1593558502,94,6.65,-10.59,77.0,3.2
17,busselton,69,AU,1593558326,66,-33.65,115.33,51.01,9.93
18,anadyr,90,RU,1593558502,81,64.75,177.48,46.4,4.47
19,punta arenas,60,PH,1593558503,86,8.99,125.34,78.26,4.34
20,sao joao da barra,84,IN,1593558501,76,20.51,76.21,75.92,6.58
21,iqaluit,20,CA,1593558503,75,63.75,-68.51,42.8,5.82
22,coruripe,30,BR,1593558503,86,-10.13,-36.18,74.17,9.1
23,thompson,75,CA,1593558503,77,55.74,-97.86,68.0,12.75
24,kintinku,44,TZ,1593558503,67,-5.88,35.23,64.85,2.04
25,barrow,90,US,1593558503,86,71.29,-156.79,39.2,10.29
26,cape town,90,CL,1593558503,100,-36.41,-71.9,50.0,4.7
27,stornoway,75,GB,1593558503,93,58.21,-6.39,53.01,16.11
28,kavali,94,IN,1593558503,70,14.92,79.98,84.2,8.57
29,petropavlovsk-kamchatskiy,100,RU,1593558209,55,53.05,158.65,64.4,2.24
30,geraldton,75,AU,1593558504,93,-28.77,114.6,57.2,8.05
31,provideniya,90,RU,1593558504,87,64.38,-173.3,46.4,13.42
32,mataura,100,NZ,1593558504,83,-46.19,168.86,39.0,3.0
33,tagusao,51,PH,1593558504,76,9.19,117.81,81.21,4.72
34,lompoc,4,US,1593558504,64,34.64,-120.46,69.01,16.11
35,san quintin,66,ML,1593558327,47,13.3,-4.9,88.7,0.58
36,uspenka,0,UA,1593558504,74,48.39,39.16,66.16,3.69
37,cueramaro,75,MX,1593558504,64,20.62,-101.72,75.2,5.82
38,srednekolymsk,0,RU,1593558504,45,67.45,153.68,57.33,10.49
39,manzanillo,74,CU,1593558504,77,20.34,-77.12,82.89,1.57
40,hermanus,37,ZA,1593558504,96,-34.42,19.23,53.01,1.99
41,nuuk,75,GL,1593558504,70,64.18,-51.72,48.2,5.82
42,sur,0,OM,1593558505,76,22.57,59.53,82.4,12.37
43,chateaubelair,40,VC,1593558505,74,13.28,-61.25,84.2,19.46
44,arraial do cabo,98,BR,1593558505,46,-22.84,-46.65,73.4,8.05
45,koumra,100,TD,1593558505,90,8.91,17.55,73.18,1.77
46,kedrovyy,26,RU,1593558505,100,56.17,91.82,53.6,6.04
47,tasiilaq,100,GL,1593558312,56,65.61,-37.64,44.6,26.4
48,port alfred,32,CD,1593558505,46,-7.03,29.76,73.11,7.76
49,ushuaia,0,AR,1593558381,86,-54.8,-68.3,28.4,5.82
50,nanpiao,36,CN,1593558505,53,41.1,120.75,77.31,7.05
51,zapolyarnyy,90,RU,1593558505,100,69.42,30.81,42.8,19.46
52,abdanan,0,IR,1593558505,19,32.99,47.42,74.98,4.36
53,tabou,100,CI,1593558506,79,4.42,-7.35,76.57,7.31
54,chokurdakh,46,RU,1593558506,38,70.63,147.92,54.99,9.51
55,esperance,40,AU,1593558506,87,-33.87,121.9,46.4,20.8
56,butaritari,12,KI,1593558263,73,3.07,172.79,82.45,7.47
57,san ignacio,66,ML,1593558327,47,13.3,-4.9,88.7,0.58
58,kruisfontein,0,ZA,1593558506,60,-34.0,24.73,52.5,6.4
59,pisco,91,PE,1593558506,77,-13.7,-76.22,64.4,10.29
60,biak,93,ID,1593558308,83,-0.91,122.88,76.93,5.44
61,narsaq,75,GL,1593558506,61,60.92,-46.05,50.0,9.17
62,college,75,US,1593558506,71,64.86,-147.8,55.99,9.17
63,olafsvik,71,IS,1593558256,91,64.89,-23.71,50.02,9.15
64,qaanaaq,13,GL,1593558507,71,77.48,-69.36,41.18,2.73
65,nouadhibou,0,MR,1593558507,83,20.93,-17.03,69.8,17.22
66,kibaya,14,TZ,1593558507,100,-5.3,36.57,55.2,4.97
67,atuona,22,PF,1593558255,73,-9.8,-139.03,80.08,20.0
68,wanxian,100,CN,1593558507,79,30.8,108.39,79.36,3.42
69,maniitsoq,97,GL,1593558297,68,65.42,-52.9,49.64,10.6
70,bambous virieux,40,MU,1593558507,88,-20.26,57.41,66.99,5.82
71,jamestown,20,US,1593558284,64,42.1,-79.24,75.99,11.41
72,albany,86,US,1593558128,90,42.6,-73.97,68.0,4.81
73,castro,76,BR,1593558262,92,-24.79,-50.01,60.6,14.79
74,coquimbo,6,CL,1593558279,82,-29.95,-71.34,57.2,5.82
75,komsomolskiy,80,UZ,1593558508,36,40.43,71.72,77.0,6.93
76,tiksi,0,RU,1593558508,57,71.69,128.87,48.87,7.2
77,benjamin aceval,75,US,1593558508,34,40.1,-111.73,71.01,4.79
78,westport,1,US,1593558508,78,41.14,-73.36,72.0,4.7
79,tuktoyaktuk,75,CA,1593558508,63,69.45,-133.04,64.4,11.41
80,ordzhonikidzevskiy,0,RU,1593558508,78,43.84,41.9,56.73,5.93
81,canakkale,0,TR,1593558508,47,40.08,26.83,77.0,9.17
82,canutama,100,BR,1593558508,69,-6.53,-64.38,81.77,2.26
83,bredasdorp,66,ZA,1593558257,93,-34.53,20.04,46.4,5.82
84,hilo,40,US,1593558264,54,19.73,-155.09,84.2,13.87
85,marawi,42,PH,1593558509,89,8.0,124.29,75.99,5.01
86,piacabucu,25,BR,1593558509,85,-10.41,-36.43,74.32,8.77
87,mahebourg,40,MU,1593558509,88,-20.41,57.7,64.4,5.82
88,norman wells,40,US,1593558509,59,35.22,-97.44,91.99,18.34
89,clyde river,0,US,1593558509,49,41.3,-82.98,82.0,5.01
90,puerto ayora,75,ES,1593558509,94,36.59,-6.23,71.6,8.05
91,kavieng,39,PG,1593558266,74,-2.57,150.8,83.32,9.51
92,kodiak,1,US,1593558509,67,57.79,-152.41,57.2,10.29
93,caravelas,60,BR,1593558509,92,-17.71,-39.25,71.08,2.91
94,bathsheba,75,BB,1593558510,88,13.22,-59.52,78.8,8.05
95,lagoa,92,PT,1593558510,90,39.05,-27.98,64.45,9.37
96,guerrero negro,75,MX,1593558510,74,17.67,-100.0,77.14,3.44
97,sitka,75,US,1593558510,71,57.05,-135.33,57.2,14.99
98,alanya,0,TR,1593558510,45,36.54,32.0,81.46,3.36
99,hoquiam,90,US,1593558510,82,46.98,-123.89,60.01,10.29
100,hualmay,80,PE,1593558510,81,-11.1,-77.61,62.53,9.75
101,hithadhoo,21,MV,1593558510,64,-0.6,73.08,83.86,1.66
102,dikson,88,RU,1593558510,87,73.51,80.55,47.88,11.86
103,kano,48,NG,1593558510,78,12.0,8.52,78.8,4.7
104,priiskovyy,53,RU,1593558511,55,51.93,116.63,70.54,3.13
105,ojos de agua,0,ES,1593558511,70,38.15,-1.34,78.01,3.0
106,jalali,0,IN,1593558511,50,27.87,78.27,90.12,7.52
107,dicabisagan,91,PH,1593558511,78,17.08,122.42,81.52,3.47
108,aquiraz,20,BR,1593558511,74,-3.9,-38.39,80.6,5.82
109,beringovskiy,100,RU,1593558511,96,63.05,179.32,41.45,8.48
110,ostrovnoy,100,RU,1593558511,62,68.05,39.51,54.63,13.49
111,aranos,0,NA,1593558511,43,-24.13,19.12,49.93,9.55
112,aklavik,75,CA,1593558511,37,68.22,-135.01,69.8,3.36
113,coihaique,90,CL,1593558512,89,-45.58,-72.07,35.6,4.7
114,tuatapere,98,NZ,1593558512,83,-46.13,167.68,39.0,3.0
115,mys shmidta,99,RU,1593558512,79,62.06,48.62,44.35,5.3
116,yellowknife,20,CA,1593558512,38,62.46,-114.35,78.01,8.05
117,chuy,100,UY,1593558278,92,-33.7,-53.46,56.93,19.48
118,cockburn town,0,AU,1593558512,30,-32.08,141.0,55.4,5.82
119,chapais,1,CA,1593558512,37,49.78,-74.85,84.2,6.93
120,maceio,20,BR,1593558275,94,-9.67,-35.74,73.4,2.24
121,katsuura,75,JP,1593558513,88,35.13,140.3,79.0,12.75
122,upernavik,34,GL,1593558513,73,72.79,-56.15,39.85,10.96
123,carnarvon,0,AU,1593558266,100,-24.87,113.63,55.4,8.05
124,hargeysa,100,SO,1593558513,57,9.56,44.06,72.48,31.25
125,severnyy,75,RU,1593558513,94,50.68,36.55,68.0,5.14
126,hobart,44,AU,1593558353,93,-42.88,147.33,41.0,5.82
127,east london,90,IS,1593558513,75,65.0,-15.0,42.8,6.93
128,borogontsy,0,RU,1593558513,36,62.67,131.17,75.15,4.65
129,namibe,74,AO,1593558513,87,-15.2,12.15,68.29,3.36
130,flinders,0,AU,1593558513,90,-34.58,150.86,60.01,5.99
131,pinhao,98,BR,1593558513,97,-25.7,-51.66,55.92,8.97
132,maloy,58,NO,1593558514,62,61.94,5.11,53.6,16.11
133,port hedland,32,CD,1593558505,46,-7.03,29.76,73.11,7.76
134,butembo,66,CD,1593558514,87,0.15,29.28,57.4,2.1
135,lavrentiya,100,RU,1593558274,81,65.58,-171.0,44.92,13.51
136,strezhevoy,91,RU,1593558514,93,60.73,77.59,50.0,2.24
137,sai buri,23,FR,1593558514,88,48.74,0.03,64.4,11.41
138,odweyne,99,SO,1593558514,57,9.41,45.06,75.09,19.04
139,olpad,80,IN,1593558514,83,21.33,72.75,83.52,13.06
140,altoona,40,US,1593558223,45,40.52,-78.39,84.2,5.82
141,zyryanka,2,RU,1593558514,36,65.75,150.85,60.71,11.45
142,quesnel,75,CA,1593558504,55,53.0,-122.5,62.6,11.41
143,darnah,0,LY,1593558514,70,32.77,22.64,74.93,16.13
144,shache,97,CN,1593558515,22,38.42,77.24,68.65,3.58
145,abasolo,75,MX,1593558515,64,20.45,-101.52,75.2,5.82
146,pecos,1,US,1593558370,14,31.42,-103.49,100.4,3.36
147,launceston,57,AU,1593558515,100,-41.45,147.17,46.99,6.93
148,sosnovo-ozerskoye,91,RU,1593558515,86,52.52,111.54,59.2,7.61
149,airai,16,TL,1593558280,83,-8.93,125.41,56.93,3.0
150,alofi,75,NU,1593558515,78,-19.06,-169.92,82.4,10.29
151,mansa,13,IN,1593558515,31,29.98,75.38,94.8,7.78
152,faya,48,SA,1593558515,53,18.39,42.45,75.2,5.82
153,morant bay,20,JM,1593558515,78,17.9,-76.43,82.4,4.7
154,dwarka,61,IN,1593558516,75,22.24,68.97,84.51,1.5
155,hay river,80,GB,1593558516,90,52.07,-3.13,59.0,1.99
156,christchurch,92,NZ,1593558516,80,-43.53,172.63,42.01,26.4
157,carahue,90,CL,1593558516,87,-38.7,-73.17,51.8,13.87
158,calama,0,CL,1593558324,5,-22.47,-68.93,62.6,13.87
159,konya,0,TR,1593558449,40,38.17,32.5,66.2,8.05
160,semenyih,20,MY,1593558516,88,2.95,101.84,79.0,3.36
161,nikolskoye,27,RU,1593558262,77,59.7,30.79,61.0,11.18
162,avarua,42,CK,1593558516,74,-21.21,-159.78,78.8,17.22
163,maldonado,90,UY,1593558445,100,-34.67,-54.92,53.6,39.15
164,sosnogorsk,93,RU,1593558517,77,63.6,53.88,45.55,4.32
165,chapada dos guimaraes,94,BR,1593558517,90,-28.89,-50.36,51.3,15.26
166,torbay,90,CA,1593558314,94,47.67,-52.73,70.0,12.75
167,fortuna,21,US,1593558517,72,40.6,-124.16,64.99,20.8
168,cabo san lucas,20,BR,1593558517,74,-8.28,-35.03,78.8,8.05
169,maragogi,7,BR,1593558390,85,-9.01,-35.22,74.77,8.59
170,fare,6,PF,1593558517,73,-16.7,-151.02,78.17,24.23
171,ucluelet,5,CA,1593558261,63,48.93,-125.55,63.0,10.29
172,ballitoville,75,ZA,1593558517,93,-29.54,31.21,53.6,1.9
173,muzhi,1,RU,1593558517,74,65.37,64.67,42.06,6.58
174,mehamn,100,NO,1593558267,89,71.04,27.85,40.69,20.56
175,mecca,15,SA,1593558518,19,21.43,39.83,89.65,6.51
176,pangnirtung,40,CA,1593558518,86,66.15,-65.71,37.4,8.05
177,abu samrah,84,IN,1593558518,84,24.6,72.7,74.84,6.26
178,porto santo,40,PT,1593558241,93,41.15,-8.61,66.99,11.41
179,rovaniemi,90,FI,1593558322,100,66.5,25.72,53.6,10.29
180,talnakh,15,RU,1593558518,87,69.49,88.4,55.4,13.42
181,klaksvik,96,FO,1593558518,65,62.23,-6.59,46.4,10.29
182,shingu,100,JP,1593558518,96,33.73,135.98,73.27,15.9
183,puerto colombia,75,ES,1593558509,94,36.59,-6.23,71.6,8.05
184,nome,75,US,1593558519,81,64.5,-165.41,51.01,17.22
185,souillac,40,MU,1593558519,88,-20.52,57.52,64.4,5.82
186,mandali,0,IQ,1593558519,21,33.75,45.55,85.14,4.36
187,hobyo,95,SO,1593558519,77,5.35,48.53,79.12,26.55
188,port elizabeth,32,CD,1593558519,46,-7.03,29.76,73.11,7.76
189,doha,0,QA,1593558519,46,25.29,51.53,91.4,1.12
190,skegness,75,GB,1593558519,82,53.14,0.34,63.0,4.7
191,piraquara,75,BR,1593558519,87,-25.44,-49.06,66.0,6.93
192,isangel,20,VU,1593558519,64,-19.55,169.27,73.4,6.93
193,sao joao do paraiso,84,IN,1593558520,76,20.51,76.21,75.92,6.58
194,ninohe,90,JP,1593558520,100,40.27,141.31,64.4,2.24
195,asau,5,RO,1593558520,93,46.43,26.4,59.0,4.25
196,maine-soroa,1,NE,1593558520,55,13.21,12.02,83.07,9.08
197,elyria,1,US,1593558462,39,41.37,-82.11,82.4,11.41
198,muros,2,ES,1593558520,84,42.78,-9.06,64.99,5.01
199,bretten,4,DE,1593558520,82,49.04,8.7,66.0,4.25
200,victoria,100,HK,1593558520,79,22.29,114.16,84.0,3.0
201,verkhnevilyuysk,0,RU,1593558520,50,63.45,120.32,76.68,2.59
202,kenai,40,US,1593558520,55,60.55,-151.26,64.99,9.17
203,nanortalik,93,GL,1593558521,88,60.14,-45.24,40.8,3.47
204,saldanha,0,ZA,1593558521,82,-33.01,17.94,55.4,2.24
205,ascension,1,US,1593558521,49,30.22,-90.9,93.0,8.05
206,mpulungu,61,ZM,1593558521,59,-8.76,31.11,70.88,8.37
207,antofagasta,75,CL,1593558405,82,-23.65,-70.4,59.0,13.87
208,catuday,90,PH,1593558521,81,16.29,119.81,81.01,10.18
209,aksarka,30,RU,1593558521,80,66.56,67.8,40.86,7.34
210,hovd,40,MN,1593558292,63,48.01,91.64,57.72,8.08
211,tomatlan,4,MX,1593558521,51,19.93,-105.25,89.51,11.36
212,sao gabriel da cachoeira,84,IN,1593558521,76,20.51,76.21,75.92,6.58
213,sirjan,0,IR,1593558522,29,29.45,55.68,72.52,8.61
214,hatten,100,DE,1593558522,96,53.02,8.35,57.99,1.01
215,casambalangan,91,PH,1593558522,80,18.38,122.13,82.38,2.21
216,ronse,99,BE,1593558523,100,50.75,3.6,63.0,5.82
217,akyab,100,MM,1593558523,82,20.15,92.9,81.77,3.58
218,athabasca,100,CA,1593558523,92,54.72,-113.29,58.39,5.23
219,juneau,90,US,1593558523,59,58.3,-134.42,60.8,4.7
220,erdenet,0,MN,1593558523,75,49.03,104.08,58.17,6.13
221,zorritos,5,PE,1593558523,76,-3.68,-80.68,72.36,7.45
222,georgiyevskoye,70,RU,1593558523,82,58.73,45.02,46.98,7.16
223,san patricio,66,ML,1593558524,47,13.3,-4.9,88.7,0.58
224,bengkulu,31,ID,1593558524,81,-3.8,102.27,75.29,3.78
225,jurm,52,AF,1593558524,44,36.86,70.83,64.8,1.3
226,atar,2,MR,1593558280,21,20.52,-13.05,97.11,9.66
227,buraydah,0,SA,1593558524,24,26.33,43.98,91.4,6.93
228,hearst,100,CA,1593558524,34,49.68,-83.67,90.09,3.51
229,seoul,90,KR,1593558321,93,37.57,126.98,66.2,1.12
230,inirida,48,CO,1593558524,80,3.87,-67.92,78.22,0.45
231,aden,97,YE,1593558294,78,12.78,45.04,86.7,17.98
232,tokur,5,RU,1593558525,79,53.13,132.9,61.65,5.93
233,marrakesh,0,MA,1593558396,37,31.63,-8.01,86.0,3.36
234,touros,20,BR,1593558525,88,-5.2,-35.46,75.2,4.7
235,zarubino,85,RU,1593558525,82,42.63,131.09,63.25,4.05
236,dunedin,100,NZ,1593558525,88,-45.87,170.5,43.0,3.0
237,njombe,64,TZ,1593558525,89,-9.33,34.77,53.29,8.23
238,camocim,0,BR,1593558525,69,-2.9,-40.84,82.4,5.82
239,berlevag,100,NO,1593558525,91,70.86,29.09,42.13,19.66
240,bucak,0,TR,1593558526,37,37.46,30.59,75.2,13.87
241,marsa matruh,0,MT,1593558526,78,35.88,14.5,75.99,3.36
242,port-cartier,40,CA,1593558527,72,50.03,-66.87,68.0,8.05
243,khatanga,10,RU,1593558470,57,71.97,102.5,70.12,1.9
244,saint-francois,15,FR,1593558527,77,46.42,3.91,64.4,1.12
245,diapaga,91,BF,1593558527,73,12.07,1.79,80.26,4.41
246,vermilion,90,US,1593558527,88,40.17,-87.75,78.8,5.82
247,tiznit,0,MA,1593558527,51,29.58,-9.5,75.52,2.1
248,tazmalt,29,DZ,1593558497,61,36.39,4.4,78.8,6.93
249,ribeira grande,20,ES,1593558527,93,42.75,-8.44,64.99,2.24
250,zhangye,0,CN,1593558527,45,38.93,100.45,66.22,4.59
251,severo-yeniseyskiy,7,RU,1593558527,72,60.37,93.04,58.33,0.54
252,burnie,27,AU,1593558528,86,-41.07,145.92,54.0,3.0
253,bur gabo,36,DK,1593558528,89,56.37,8.43,55.99,17.31
254,kaitangata,100,NZ,1593558528,74,-46.28,169.85,44.01,8.01
255,narrabri,40,AU,1593558528,75,-30.32,149.78,50.0,2.24
256,havre-saint-pierre,1,CA,1593558528,68,50.23,-63.6,69.8,8.05
257,axim,48,GH,1593558528,85,4.87,-2.24,75.13,6.96
258,hamilton,1,US,1593558330,74,39.18,-84.53,82.99,0.89
259,jijiang,99,CN,1593558528,93,29.29,106.25,77.0,4.34
260,springbok,0,ZA,1593558529,41,-29.66,17.89,51.49,7.56
261,cidreira,98,BR,1593558529,84,-30.18,-50.21,60.69,24.47
262,derzhavinsk,88,KZ,1593558529,89,51.1,66.32,54.16,7.56
263,ternate,34,ID,1593558529,77,0.8,127.4,80.73,0.58
264,severo-kurilsk,30,RU,1593558529,69,50.68,156.12,50.85,11.88
265,sidvokodvo,17,SZ,1593558529,82,-26.63,31.42,62.6,3.36
266,waitati,100,NZ,1593558529,86,-45.75,170.57,43.0,21.99
267,saint-philippe,0,RE,1593558263,52,-21.36,55.77,66.2,9.17
268,borovoy,98,RU,1593558529,77,55.43,86.08,62.6,8.95
269,ust-kulom,90,RU,1593558530,82,61.69,53.69,40.62,3.0
270,madaoua,26,NE,1593558530,45,14.07,5.96,88.65,11.81
271,chegdomyn,30,RU,1593558530,53,51.12,133.02,71.71,3.02
272,billings,75,US,1593558353,35,45.78,-108.5,73.0,3.36
273,toamasina,31,MG,1593558530,87,-18.17,49.38,68.36,6.38
274,acarau,0,BR,1593558530,69,-2.89,-40.12,82.4,5.82
275,qui nhon,20,BR,1593558530,69,-10.97,-37.6,78.8,5.82
276,dondo,75,MZ,1593558530,83,-19.61,34.74,69.8,5.82
277,vanimo,100,PG,1593558530,69,-2.67,141.3,82.58,3.94
278,sharan,0,RU,1593558530,87,54.82,54.0,43.59,2.13
279,tefe,27,BR,1593558531,93,-3.35,-64.71,75.99,3.04
280,uruzgan,0,AF,1593558531,36,32.83,66.0,69.64,5.21
281,awbari,0,LY,1593558531,18,26.59,12.78,84.47,4.63
282,kangalassy,1,RU,1593558531,40,62.35,129.96,71.6,2.24
283,lata,37,PT,1593558531,86,40.16,-8.33,64.99,5.99
284,lebu,100,CL,1593558531,91,-37.62,-73.65,51.91,20.33
285,jizan,24,SA,1593558531,75,17.33,42.67,91.4,3.38
286,dillingen,38,DE,1593558531,68,49.35,6.73,62.01,5.95
287,fort nelson,100,NL,1593558531,93,52.65,6.39,59.0,9.91
288,fraga,26,ES,1593558531,83,41.52,0.35,72.0,10.29
289,pilar,20,BR,1593558532,94,-9.6,-35.96,73.4,2.24
290,cayenne,94,GF,1593558532,88,4.93,-52.33,78.8,3.36
291,matamoros,40,MX,1593558532,23,25.53,-103.25,95.0,6.6
292,zhigansk,25,RU,1593558532,44,66.77,123.37,74.35,7.25
293,negombo,40,LK,1593558532,94,7.21,79.84,82.4,2.24
294,berezanka,3,UA,1593558532,85,46.85,31.39,69.66,10.67
295,cherskiy,70,RU,1593558532,60,68.75,161.3,50.52,12.08
296,manokwari,100,ID,1593558279,67,-0.87,134.08,82.31,3.62
297,aranda de duero,18,PH,1593558532,78,10.24,122.95,79.92,4.76
298,angoche,24,MZ,1593558533,85,-16.23,39.91,70.92,14.56
299,necochea,100,AR,1593558533,83,-38.55,-58.74,48.0,10.0
300,port hardy,32,CD,1593558519,46,-7.03,29.76,73.11,7.76
301,port lincoln,32,CD,1593558519,46,-7.03,29.76,73.11,7.76
302,poya,45,NC,1593558533,58,-21.35,165.15,69.8,11.79
303,leningradskiy,100,RU,1593558533,97,69.38,178.42,34.81,1.36
304,tura,71,IN,1593558533,93,25.52,90.22,74.43,3.87
305,castelo do piaui,27,BR,1593558533,82,-20.6,-41.18,64.4,5.1
306,dingle,74,PH,1593558533,78,11.0,122.67,79.92,2.39
307,dali,99,CN,1593558533,86,25.7,100.18,64.76,3.24
308,varzob,20,TJ,1593558533,56,38.77,68.82,68.0,4.47
309,tateyama,75,JP,1593558307,88,34.98,139.87,77.0,12.75
310,porto velho,40,PT,1593558241,93,41.15,-8.61,66.99,11.41
311,nanakuli,90,US,1593558534,58,21.39,-158.15,87.01,5.82
312,nuevitas,52,CU,1593558363,70,21.55,-77.26,86.0,13.87
313,ntungamo,38,UG,1593558534,63,-0.88,29.65,64.42,3.36
314,banda aceh,6,IN,1593558534,56,25.48,80.33,89.58,4.79
315,leon,75,MX,1593558427,64,21.12,-101.67,75.2,5.82
316,port blair,32,CD,1593558534,46,-7.03,29.76,73.11,7.76
317,inhambane,84,MZ,1593558534,80,-23.86,35.38,67.91,13.47
318,niquero,49,CU,1593558534,68,20.04,-77.58,84.63,7.36
319,somerset,75,US,1593558535,83,40.57,-74.55,78.01,4.68
320,joshimath,56,IN,1593558535,56,30.57,79.57,65.37,0.63
321,portland,75,US,1593558302,46,45.52,-122.68,71.01,13.87
322,grand river south east,1,US,1593558535,9,38.88,-109.5,80.6,13.87
323,qixia,0,CN,1593558535,81,37.3,120.83,73.99,5.55
324,zambezi,7,ZM,1593558535,49,-13.54,23.1,58.86,5.68
325,alugan,46,PH,1593558535,75,12.22,125.48,82.78,4.16
326,naberera,25,TZ,1593558535,98,-4.2,36.93,57.54,7.34
327,tazlar,25,HU,1593558535,88,46.55,19.51,66.99,2.24
328,constitucion,100,CL,1593558536,77,-35.33,-72.42,53.28,3.44
329,ahipara,29,NZ,1593558536,71,-35.17,173.17,56.5,10.49
330,phan thiet,40,TH,1593558536,100,19.55,99.74,77.0,2.24
331,makakilo city,90,US,1593558536,58,21.35,-158.09,87.8,5.82
332,seybaplaya,20,MX,1593558536,44,19.65,-90.67,95.0,17.22
333,kondinskoye,28,RU,1593558536,84,59.65,67.41,45.59,3.76
334,itarema,0,BR,1593558536,69,-2.92,-39.92,82.4,5.82
335,hit,0,IQ,1593558536,21,33.64,42.83,86.0,13.96
336,miandrivazo,0,MG,1593558276,67,-19.52,45.47,67.41,1.43
337,ust-ilimsk,18,RU,1593558536,78,58.0,102.66,68.32,5.26
338,vila franca do campo,1,PT,1593558502,88,42.03,-8.16,66.0,6.93
339,paamiut,94,GL,1593558536,96,61.99,-49.67,39.54,7.65
340,chepen,5,PE,1593558537,70,-7.22,-79.45,67.44,10.89
341,tahta,0,EG,1593558537,28,26.77,31.5,82.4,8.05
342,mayumba,81,GA,1593558537,86,-3.43,10.66,70.93,4.47
343,nishihara,75,JP,1593558537,83,26.18,127.76,84.2,17.22
344,shangrao,45,CN,1593558537,89,28.45,117.97,78.3,1.45
345,terenos,75,BR,1593558537,61,-20.44,-54.86,77.0,9.17
346,richards bay,40,US,1593558537,62,46.84,-95.91,86.0,12.75
347,xinzhou,91,CN,1593558537,64,38.41,112.73,69.96,0.6
348,kuala pilah,40,ID,1593558537,94,3.38,98.62,75.2,2.24
349,japura,77,ID,1593558537,93,-0.32,102.35,73.11,2.13
350,dawson creek,40,US,1593558538,74,31.77,-84.45,80.6,6.91
351,abha,49,SA,1593558538,53,18.22,42.51,75.2,5.82
352,poum,0,NC,1593558538,63,-20.23,164.02,69.93,17.76
353,visnes,45,NO,1593558538,76,59.36,5.22,57.2,18.34
354,faanui,18,PF,1593558538,75,-16.48,-151.75,78.12,24.25
355,nacala,0,MZ,1593558538,84,-14.54,40.67,68.68,12.59
356,pandan niog,63,PH,1593558538,77,14.05,124.17,82.29,7.38
357,adrar,10,MR,1593558538,15,20.5,-10.07,97.39,3.56
358,tanout,50,NE,1593558538,34,14.97,8.89,90.01,12.08
359,longyearbyen,100,SJ,1593558484,52,78.22,15.64,44.6,3.36
360,sao filipe,84,IN,1593558520,76,20.51,76.21,75.92,6.58
361,tommot,33,RU,1593558538,52,58.96,126.29,72.0,2.66
362,west bay,40,US,1593558538,59,31.8,-97.09,89.6,12.75
363,petropavlovka,0,RU,1593558539,60,50.61,105.32,65.93,3.49
364,shakawe,0,BW,1593558539,43,-18.37,21.85,50.58,5.3
365,cancun,20,MX,1593558414,70,21.17,-86.85,87.8,10.29
366,rockland,63,US,1593558308,76,41.17,-74.05,78.01,2.77
367,bestobe,61,KZ,1593558539,75,52.5,73.1,64.0,3.65
368,athens,0,GR,1593558532,47,37.98,23.72,82.99,3.02
369,chimbote,57,PE,1593558539,81,-9.09,-78.58,63.79,11.07
370,allen,20,US,1593558241,33,41.07,-85.01,89.6,12.75
371,balakovo,0,RU,1593558539,85,52.03,47.8,51.13,3.87
372,ballina,5,AU,1593558540,100,-28.87,153.57,57.99,4.45
373,vzmorye,54,RU,1593558540,82,54.7,20.24,60.8,6.71
374,valparaiso,90,CL,1593558445,71,-33.04,-71.63,57.2,3.36
375,kysyl-syr,15,RU,1593558540,45,63.9,122.76,78.89,3.02
376,roald,80,NO,1593558540,76,62.58,6.13,50.0,17.22
377,kuybyshevo,0,RU,1593558540,73,47.81,38.91,67.51,5.5
378,grand forks,1,US,1593558474,9,38.88,-109.5,80.6,13.87
379,vicente guerrero,70,CU,1593558540,68,21.8,-78.69,85.32,8.37
380,jalu,0,LY,1593558291,35,29.03,21.55,80.73,16.04
381,ferrandina,5,IT,1593558540,78,40.5,16.45,82.99,2.24
382,mount gambier,65,GB,1593558540,96,53.66,-1.85,57.0,1.3
383,shima,40,CN,1593558541,83,24.45,117.81,84.2,6.71
384,linares,100,CL,1593558541,84,-35.85,-71.6,50.29,1.3
385,ornskoldsvik,100,SE,1593558541,71,63.29,18.72,53.6,17.22
386,bocaiuva,19,BR,1593558541,89,-17.11,-43.81,62.92,4.32
387,ust-kuyga,17,RU,1593558541,34,70.02,135.6,65.79,5.46
388,bandarbeyla,100,SO,1593558541,67,9.49,50.81,81.43,33.91
389,orchard homes,21,CA,1593558541,62,43.4,-79.79,81.0,4.43
390,makaha,75,US,1593558541,58,21.47,-158.22,87.01,9.17
391,russell,75,US,1593558541,88,32.35,-85.2,75.99,5.86
392,bodden town,89,GB,1593558542,94,51.2,-2.52,60.01,3.0
393,elat,0,IL,1593558542,35,29.56,34.95,86.0,13.87
394,acapulco,40,MX,1593558486,66,16.86,-99.89,87.8,5.82
395,shorewood,75,US,1593558542,62,41.52,-88.2,87.8,8.05
396,moree,0,AU,1593558542,75,-29.47,149.85,46.4,9.17
397,tombouctou,0,ML,1593558542,30,20.0,-3.0,91.29,8.97
398,waingapu,25,ID,1593558542,82,-9.66,120.26,73.78,7.85
399,hofn,88,IS,1593558542,78,64.25,-15.21,43.66,4.18
400,ilhabela,95,BR,1593558542,70,-23.78,-45.36,71.96,4.54
401,jinchang,61,CN,1593558543,43,38.5,102.17,70.03,6.06
402,nizhniy odes,0,RU,1593558543,88,45.39,39.24,71.01,2.24
403,tezu,99,IN,1593558543,80,27.92,96.17,75.83,2.53
404,corcoran,1,US,1593558543,21,36.1,-119.56,93.99,8.84
405,kaabong,92,UG,1593558543,55,3.48,34.15,67.66,2.13
406,mar del plata,76,ES,1593558543,82,43.4,-4.01,68.0,3.0
407,angoram,100,PG,1593558543,91,-4.06,144.07,77.85,1.77
408,kuching,20,MY,1593558543,100,1.55,110.33,75.2,4.03
409,tecoanapa,83,MX,1593558543,59,16.52,-98.75,86.83,8.16
410,minbu,100,MM,1593558543,75,20.18,94.88,80.98,7.9
411,lincoln,90,US,1593558242,62,40.8,-96.67,90.0,19.46
412,grand-bourg,40,GP,1593558544,83,15.88,-61.31,84.2,9.17
413,lakhdenpokhya,51,RU,1593558544,80,61.52,30.2,57.0,13.27
414,naron,31,ES,1593558544,93,43.52,-8.15,66.0,4.88
415,lorengau,98,PG,1593558544,68,-2.02,147.27,84.49,5.26
416,ginir,1,ET,1593558271,90,7.13,40.7,57.38,9.08
417,sakaiminato,75,JP,1593558544,94,35.55,133.23,68.0,13.87
418,calabar,98,NG,1593558544,96,4.95,8.32,70.92,1.03
419,luderitz,0,NA,1593558256,20,-26.65,15.16,66.2,3.36
420,ivanava,6,BY,1593558545,92,52.15,25.54,57.88,7.38
421,benguela,13,AO,1593558545,85,-12.58,13.41,67.17,0.72
422,rio de jesus,0,GR,1593558545,78,38.3,21.78,71.6,0.54
423,port-gentil,90,GA,1593558545,83,-0.72,8.78,75.2,10.29
424,talaya,0,RU,1593558545,37,61.38,152.75,57.02,17.81
425,ashqelon,75,IL,1593558545,83,31.67,34.57,73.4,5.82
426,nemuro,100,JP,1593558545,99,43.32,145.57,55.94,8.52
427,huilong,47,CN,1593558545,88,31.81,121.66,77.0,1.99
428,lasa,40,IT,1593558545,93,46.62,10.7,60.8,2.24
429,georgiyevka,20,KZ,1593558546,56,43.04,74.71,68.0,6.71
430,brae,99,GB,1593558546,76,60.4,-1.35,50.0,13.87
431,erenhot,6,CN,1593558272,48,43.65,111.98,71.33,4.74
432,alice springs,75,US,1593558546,66,27.75,-98.07,91.4,18.34
433,antalaha,2,MG,1593558546,85,-14.9,50.28,66.07,6.38
434,san buenaventura,66,ML,1593558524,47,13.3,-4.9,88.7,0.58
435,cairns,75,AU,1593558534,94,-16.92,145.77,71.6,9.17
436,moose factory,75,US,1593558546,66,43.66,-110.72,50.0,14.99
437,xudat,100,AZ,1593558546,47,41.63,48.68,71.33,1.19
438,vestmannaeyjar,98,IS,1593558547,79,63.44,-20.27,48.4,6.24
439,qaqortoq,75,GL,1593558393,61,60.72,-46.03,50.0,9.17
440,kulevcha,17,UA,1593558548,81,46.03,29.94,71.26,11.32
441,riyadh,1,SA,1593558478,25,24.69,46.72,87.8,4.85
442,sobolevo,31,RU,1593558548,93,54.43,31.9,55.98,6.31
443,ketchikan,75,US,1593558548,55,55.34,-131.65,64.4,12.75
444,merauke,70,ID,1593558390,76,-8.47,140.33,77.99,14.16
445,bratslav,0,UA,1593558548,92,48.82,28.94,59.0,6.42
446,bosobolo,98,CD,1593558548,97,4.18,19.9,68.95,1.86
447,baruun-urt,68,MN,1593558548,80,46.68,113.28,60.33,6.76
448,fukue,62,JP,1593558549,81,32.69,128.84,71.19,15.73
449,gayny,10,RU,1593558549,88,60.31,54.32,39.07,2.75
450,kuznechnoye,44,RU,1593558549,84,61.12,29.87,57.0,12.62
451,dumka,83,IN,1593558549,79,24.27,87.25,82.99,4.74
452,pangai,40,TO,1593558549,78,-19.8,-174.35,80.6,6.93
453,araouane,21,ML,1593558549,28,18.9,-3.53,93.47,10.18
454,sirari,65,TZ,1593558549,67,-1.23,34.43,61.72,3.69
455,husavik,0,IS,1593558549,71,66.04,-17.34,50.0,8.05
456,finschhafen,100,PG,1593558550,86,-6.6,147.87,76.96,7.29
457,palu,30,ID,1593558550,76,-0.89,119.87,76.19,2.77
458,saskylakh,62,RU,1593558550,35,71.92,114.08,80.49,7.2
459,salinas,1,US,1593558550,56,36.68,-121.66,79.0,12.75
460,meulaboh,100,ID,1593558550,88,4.14,96.13,76.5,3.8
461,samfya,25,ZM,1593558550,79,-11.36,29.56,61.12,10.47
462,durant,90,US,1593558297,52,33.99,-96.37,91.4,18.34
463,half moon bay,75,LR,1593558550,94,6.38,-10.7,77.0,6.78
464,korla,0,CN,1593558551,24,41.76,86.15,69.26,13.13
465,chifeng,92,CN,1593558551,68,42.27,118.96,68.7,2.35
466,pevek,100,RU,1593558551,93,69.7,170.31,35.02,15.75
467,kutum,42,SD,1593558551,56,14.2,24.67,75.83,9.91
468,lumeje,80,AO,1593558551,48,-11.55,20.78,57.97,5.95
469,sakakah,0,SA,1593558551,14,29.97,40.21,84.2,8.05
470,sola,85,VU,1593558551,79,-13.88,167.55,78.01,25.57
471,ilulissat,75,GL,1593558551,70,69.22,-51.1,44.6,5.82
472,medea,20,DZ,1593558551,24,36.26,2.75,89.6,3.36
473,kavaratti,100,IN,1593558551,75,10.57,72.64,83.3,17.31
474,deputatskiy,73,RU,1593558552,54,69.3,139.9,55.67,6.98
475,banyo,98,CM,1593558552,91,6.75,11.82,64.87,1.61
476,sibsagar,73,IN,1593558552,91,26.98,94.63,77.27,5.95
477,acari,75,PE,1593558552,68,-15.43,-74.62,64.02,5.79
478,price,20,US,1593558552,21,39.6,-110.81,71.6,12.75
479,papar,20,MY,1593558552,88,5.73,115.93,79.0,5.82
480,siparia,20,TT,1593558552,74,10.13,-61.5,82.4,8.05
481,cascais,63,PT,1593558553,89,38.7,-9.42,68.0,20.0
482,youghal,75,IE,1593558553,93,51.95,-7.85,57.0,12.75
483,belaya gora,1,UA,1593558553,70,49.03,25.77,64.99,4.0
484,pouembout,18,NC,1593558553,58,-21.13,164.9,70.23,12.12
485,padang,2,ID,1593558553,74,-0.95,100.35,76.17,5.28
486,homa bay,99,ET,1593558553,95,9.08,35.7,58.87,3.36
487,karratha,83,AU,1593558553,54,-20.74,116.85,69.13,3.96
488,onega,100,RU,1593558553,69,63.91,38.14,58.59,16.13
489,nago,75,JP,1593558553,83,26.59,127.98,84.2,17.22
490,sri aman,0,MA,1593558553,82,30.04,-8.8,68.0,3.36
491,white rock,1,US,1593558554,74,35.25,-91.73,90.0,5.82
492,dalvik,1,IS,1593558554,71,65.97,-18.53,50.0,8.05
493,saint-denis,90,FR,1593558554,68,48.92,2.33,69.8,12.75
494,pindushi,99,RU,1593558554,84,62.92,34.58,52.84,12.35
495,roma,20,US,1593558554,57,43.21,-75.46,78.8,11.41
496,hauzenberg,0,DE,1593558554,82,48.65,13.63,62.01,0.92
497,megion,94,RU,1593558554,93,61.03,76.11,50.0,2.24
498,astoria,90,US,1593558554,72,46.19,-123.83,60.8,12.75
499,northam,91,GB,1593558295,95,51.03,-4.22,57.99,10.0
500,kem,100,RU,1593558555,71,64.96,34.58,59.56,16.64
501,bud,1,US,1593558555,69,39.45,-86.18,82.0,8.05
502,havre,86,FR,1593558555,82,49.58,0.33,66.2,12.75
503,mitsamiouli,35,KM,1593558555,73,-11.38,43.28,77.65,18.9
504,ayan,77,RU,1593558555,73,56.45,138.17,54.5,8.08
505,yining,31,CN,1593558555,91,29.04,114.56,77.16,1.5
506,mildura,75,AU,1593558325,44,-34.2,142.15,46.99,4.7
507,kargil,43,IN,1593558555,47,34.57,76.1,53.42,5.68
508,amga,0,RU,1593558555,41,60.9,131.96,71.71,2.28
509,yeppoon,20,AU,1593558259,77,-23.13,150.73,62.6,8.05
510,brigantine,90,US,1593558555,65,39.41,-74.36,77.0,8.05
511,pineville,75,US,1593558556,70,31.32,-92.43,87.8,3.36
512,duluth,75,US,1593558512,88,46.78,-92.11,77.0,6.93
513,buritis,47,BR,1593558556,61,-15.62,-46.42,67.21,1.3
514,beyneu,2,KZ,1593558556,56,45.32,55.2,70.86,8.97
515,zholymbet,71,KZ,1593558556,86,51.74,71.71,59.52,1.05
516,preobrazheniye,100,RU,1593558556,68,42.9,133.91,62.53,9.93
517,salalah,75,OM,1593558264,89,17.02,54.09,84.2,8.05
518,kailua,75,US,1593558556,62,21.4,-157.74,87.8,13.87
519,saint-gilles,20,FR,1593558556,94,43.68,4.43,71.6,6.93
520,morada nova,1,US,1593558556,16,38.04,-121.25,95.0,9.17
521,gravdal,100,NO,1593558556,86,68.12,13.5,46.04,19.04
522,libertador general san martin,100,VE,1593558557,93,8.03,-62.42,74.01,4.27
523,westerland,95,DE,1593558557,77,54.91,8.3,59.0,20.8
524,marang,40,MY,1593558557,100,5.21,103.21,78.8,1.12
525,yantal,29,RU,1593558557,58,56.85,105.25,72.05,2.53
526,tual,88,ID,1593558557,82,-5.67,132.75,79.66,17.81
527,kaseda,20,JP,1593558557,94,31.42,130.32,69.8,2.24
528,beira,75,MZ,1593558557,83,-19.84,34.84,69.8,5.82
529,rudnogorsk,1,RU,1593558557,63,57.26,103.75,70.03,1.41
530,havoysund,75,NO,1593558558,93,71.0,24.66,41.0,25.28
531,xining,99,CN,1593558558,79,36.62,101.77,55.83,2.19
532,yar-sale,98,RU,1593558558,80,66.83,70.83,46.18,4.27
533,plouzane,100,FR,1593558558,93,48.38,-4.62,62.6,17.22
534,sunndalsora,75,NO,1593558558,76,62.68,8.55,50.0,20.8
535,springfield,81,US,1593558537,75,37.22,-93.3,86.0,4.0
536,sinop,0,TR,1593558558,72,41.77,34.87,63.19,3.42
537,kholodnyy,68,RU,1593558558,39,62.72,147.95,56.14,15.28
538,hadejia,35,NG,1593558558,48,12.45,10.04,86.45,9.64
539,matagami,1,CA,1593558558,35,49.75,-77.63,86.0,4.7
540,krasnoselkup,75,RU,1593558559,85,65.7,82.47,53.87,14.54
541,kualakapuas,5,ID,1593558559,97,-3.01,114.39,72.68,2.59
542,parang,35,PH,1593558559,87,7.37,124.27,76.8,2.84
543,mezoszilas,4,HU,1593558559,75,46.81,18.48,65.7,4.03
544,samarai,59,PG,1593558559,85,-10.62,150.67,78.73,17.94
545,nadym,95,RU,1593558559,90,65.53,72.52,46.71,7.36
546,tabas,0,IR,1593558559,16,33.6,56.92,87.8,4.7
547,fujin,0,CN,1593558316,77,47.26,132.03,69.89,6.46
548,verkhnyaya inta,100,RU,1593558559,69,60.98,40.21,56.5,13.69
549,sangar,13,RU,1593558560,48,63.92,127.47,71.94,5.03
550,hegang,0,CN,1593558560,70,47.4,130.37,71.06,4.54
551,miri,20,MY,1593558560,94,4.41,114.01,77.0,5.12
552,gamba,92,GA,1593558560,86,-2.65,10.0,70.47,2.8
553,tucuma,12,BR,1593558560,91,-0.18,-50.05,77.11,6.31
554,aksu,35,CN,1593558560,23,41.12,80.26,70.7,4.0
555,kununurra,19,AU,1593558560,26,-15.77,128.73,55.4,5.41
556,tiarei,75,PF,1593558560,54,-17.53,-149.33,82.4,4.7
